[
  {
    "name": "땀땀",
    "category": "아시안",
    "address": "서울 강남구 강남대로98길 12-5",
    "latitude": 37.5007842598074,
    "longitude": 127.028401024501,
    "description": "강남역 웨이팅 필수, 얼큰한 매운 소곱창 쌀국수의 원조 맛집",
    "tags": "#이색데이트 #모임 #힙한 #특별한메뉴 #가성비",
    "image_url": "https://placehold.co/400x300?text=TamTam",
    "review_count": 3574,
    "region": "강남"
  },
  {
    "name": "정식당",
    "category": "한식(파인다이닝)",
    "address": "서울 강남구 선릉로158길 11",
    "latitude": 37.5255985338861,
    "longitude": 127.0406192084673,
    "description": "미쉐린 2스타, 현대적으로 재해석한 창의적인 코리안 파인다이닝",
    "tags": "#회식 #친구 #편안한 #재료신선 #고급스러운",
    "image_url": "https://placehold.co/400x300?text=Jungsik",
    "review_count": 244,
    "region": "강남"
  },
  {
    "name": "다운타우너 청담",
    "category": "양식(버거)",
    "address": "서울 강남구 도산대로53길 14",
    "latitude": 37.5241273900299,
    "longitude": 127.0378216061468,
    "description": "아보카도 버거가 유명한 서울 수제버거의 대표주자",
    "tags": "#데이트 #기념일 #분위기좋은 #맛있는 #가격대있는",
    "image_url": "https://placehold.co/400x300?text=Downtowner",
    "review_count": 872,
    "region": "강남"
  },
  {
    "name": "알라보 강남점",
    "category": "샐러드/브런치",
    "address": "서울 강남구 테헤란로 129",
    "latitude": 37.499695918155,
    "longitude": 127.0321028252383,
    "description": "슈퍼푸드 아보카도를 활용한 건강하고 든든한 브런치 볼",
    "tags": "#데이트 #소개팅 #조용한 #플레이팅예쁜 #가격대있는",
    "image_url": "https://placehold.co/400x300?text=Allavo",
    "review_count": 1073,
    "region": "강남"
  },
  {
    "name": "미즈컨테이너 강남웨스트",
    "category": "양식",
    "address": "서울 강남구 강남대로102길 13-3",
    "latitude": 37.5026496081608,
    "longitude": 127.026829671864,
    "description": "떠먹는 피자와 샐러드 파스타가 유명한 활기찬 분위기의 맛집",
    "tags": "#소개팅 #기념일 #조용한 #플레이팅예쁜 #가격대있는",
    "image_url": "https://placehold.co/400x300?text=Mies",
    "review_count": 3968,
    "region": "강남"
  },
  {
    "name": "고에몬 강남점",
    "category": "일식",
    "address": "서울 서초구 서초대로77길 54",
    "latitude": 37.5011250633275,
    "longitude": 127.0260066610985,
    "description": "폭신한 수플레 오믈렛과 명란 파스타가 맛있는 일본풍 스파게티 전문점",
    "tags": "#술한잔 #데이트 #아늑한 #정갈한 #퀄리티높은",
    "image_url": "https://placehold.co/400x300?text=Goemon",
    "review_count": 2159,
    "region": "강남"
  },
  {
    "name": "런던베이글뮤지엄 도산",
    "category": "카페/베이커리",
    "address": "서울 강남구 언주로168길 33",
    "latitude": 37.5262612157076,
    "longitude": 127.0354226401852,
    "description": "영국 감성 가득한 인테리어와 쫄깃한 베이글이 있는 최고의 핫플",
    "tags": "#혼카페 #데이트 #조용한 #디저트맛집 #가성비",
    "image_url": "https://placehold.co/400x300?text=LondonBagel",
    "review_count": 1146,
    "region": "강남"
  },
  {
    "name": "마녀주방 강남점",
    "category": "양식",
    "address": "서울 강남구 강남대로94길 9",
    "latitude": 37.4993924198049,
    "longitude": 127.0281015347263,
    "description": "할로윈 컨셉의 독특한 인테리어와 이색적인 플레이팅이 돋보이는 곳",
    "tags": "#데이트 #소개팅 #고급스러운 #플레이팅예쁜 #가격대있는",
    "image_url": "https://placehold.co/400x300?text=WitchKitchen",
    "review_count": 4716,
    "region": "강남"
  },
  {
    "name": "감성타코 강남역점",
    "category": "멕시칸",
    "address": "서울 강남구 강남대로 406",
    "latitude": 37.4988144285575,
    "longitude": 127.0270346560526,
    "description": "푸짐한 파히타와 다양한 소스를 즐길 수 있는 모임 장소 추천",
    "tags": "#친구 #이색데이트 #이국적인 #특별한메뉴 #가성비",
    "image_url": "https://placehold.co/400x300?text=GamsungTaco",
    "review_count": 513,
    "region": "강남"
  },
  {
    "name": "카페 노티드 청담",
    "category": "카페/디저트",
    "address": "서울 강남구 도산대로53길 15",
    "latitude": 37.5242336485939,
    "longitude": 127.0379295770215,
    "description": "입안 가득 부드러운 우유 크림 도넛으로 유명한 디저트 카페",
    "tags": "#혼카페 #데이트 #감성적인 #디저트맛집 #가성비",
    "image_url": "https://placehold.co/400x300?text=Knotted",
    "review_count": 2697,
    "region": "강남"
  },
  {
    "name": "연남토마 본점",
    "category": "퓨전일식",
    "address": "서울 마포구 월드컵북로4길 29",
    "latitude": 37.5583693054807,
    "longitude": 126.9248268519311,
    "description": "바질오일 파스타와 야키니쿠 덮밥이 맛있는 감성 식당",
    "tags": "#술한잔 #혼밥 #조용한 #장인정신 #퀄리티높은",
    "image_url": "https://placehold.co/400x300?text=Toma",
    "review_count": 3010,
    "region": "홍대/연남"
  },
  {
    "name": "바다회사랑",
    "category": "횟집",
    "address": "서울 마포구 동교로27길 60",
    "latitude": 37.5592489947103,
    "longitude": 126.9204476612584,
    "description": "겨울철 대방어 성지, 두툼한 회와 백김치 조합이 일품인 곳",
    "tags": "#이색데이트 #친구 #힙한 #현지의맛 #가성비",
    "image_url": "https://placehold.co/400x300?text=Bada",
    "review_count": 2574,
    "region": "홍대/연남"
  },
  {
    "name": "테일러커피 서교점",
    "category": "카페",
    "address": "서울 마포구 와우산로33길 46",
    "latitude": 37.5562133300788,
    "longitude": 126.9304754767872,
    "description": "블루리본 서베이가 인정한 크림모카와 아인슈페너 맛집",
    "tags": "#데이트 #혼카페 #감성적인 #디저트맛집 #가성비",
    "image_url": "https://placehold.co/400x300?text=Tailor",
    "review_count": 4975,
    "region": "홍대/연남"
  },
  {
    "name": "하카타분코",
    "category": "일식(라멘)",
    "address": "서울 마포구 독막로19길 43",
    "latitude": 37.548998124075,
    "longitude": 126.9234687595064,
    "description": "진한 돼지사골 육수의 정통 일본식 돈코츠 라멘 전문점",
    "tags": "#혼밥 #데이트 #심야식당 #정갈한 #가성비",
    "image_url": "https://placehold.co/400x300?text=Hakata",
    "review_count": 2945,
    "region": "홍대/연남"
  },
  {
    "name": "소이연남",
    "category": "태국음식",
    "address": "서울 마포구 동교로 267",
    "latitude": 37.5635005437053,
    "longitude": 126.9255319564203,
    "description": "태국 현지 느낌 물씬 나는 진한 국물의 소고기 쌀국수",
    "tags": "#친구 #이색데이트 #힙한 #특별한메뉴 #가성비",
    "image_url": "https://placehold.co/400x300?text=SoiYeonnam",
    "review_count": 3994,
    "region": "홍대/연남"
  },
  {
    "name": "아우어베이커리 홍대점",
    "category": "카페/베이커리",
    "address": "서울 마포구 양화로 141",
    "latitude": 37.5552395863593,
    "longitude": 126.9218825736167,
    "description": "더티초코와 빨미까레가 유명한 프리미엄 베이커리 카페",
    "tags": "#디저트 #친구 #사진찍기좋은 #커피맛집 #가성비",
    "image_url": "https://placehold.co/400x300?text=Our",
    "review_count": 2704,
    "region": "홍대/연남"
  },
  {
    "name": "미즈라",
    "category": "이자카야",
    "address": "서울 마포구 와우산로29바길 11-4",
    "latitude": 37.5546744111152,
    "longitude": 126.9287844139111,
    "description": "조용하고 아늑한 분위기에서 즐기는 사시미와 하이볼",
    "tags": "#데이트 #술한잔 #조용한 #정갈한 #퀄리티높은",
    "image_url": "https://placehold.co/400x300?text=Mizura",
    "review_count": 1524,
    "region": "홍대/연남"
  },
  {
    "name": "감나무집기사식당",
    "category": "한식",
    "address": "서울 마포구 연남로 25",
    "latitude": 37.5639888524135,
    "longitude": 126.9208941295761,
    "description": "무한도전에도 나온 돼지불백과 생선구이 정식 맛집",
    "tags": "#회식 #해장 #활기찬 #로컬맛집 #가성비",
    "image_url": "https://placehold.co/400x300?text=Gamnamu",
    "review_count": 1101,
    "region": "홍대/연남"
  },
  {
    "name": "랜디스도넛 연남",
    "category": "카페/디저트",
    "address": "서울 마포구 동교로 247",
    "latitude": 37.5624963341256,
    "longitude": 126.9242209355878,
    "description": "아이언맨 도넛으로 유명한 미국 본토의 맛, 다양한 토핑 도넛",
    "tags": "#디저트 #데이트 #조용한 #커피맛집 #가성비",
    "image_url": "https://placehold.co/400x300?text=Randys",
    "review_count": 4353,
    "region": "홍대/연남"
  },
  {
    "name": "신미경홍대닭갈비",
    "category": "한식",
    "address": "서울 마포구 홍익로3길 32",
    "latitude": 37.5543551720056,
    "longitude": 126.9221205064336,
    "description": "치즈 퐁듀에 찍어 먹는 매콤달콤한 홍대 터줏대감 닭갈비",
    "tags": "#해장 #회식 #활기찬 #재료신선 #저렴한",
    "image_url": "https://placehold.co/400x300?text=Dakgalbi",
    "review_count": 2373,
    "region": "홍대/연남"
  },
  {
    "name": "어니언 성수",
    "category": "카페/베이커리",
    "address": "서울 성동구 아차산로9길 8",
    "latitude": 37.544577212191,
    "longitude": 127.0560918232681,
    "description": "폐공장을 개조한 빈티지한 공간에서 즐기는 팡도르와 커피",
    "tags": "#친구 #디저트 #감성적인 #디저트맛집 #가성비",
    "image_url": "https://placehold.co/400x300?text=Onion",
    "review_count": 3724,
    "region": "성수"
  },
  {
    "name": "대림창고",
    "category": "카페/갤러리",
    "address": "서울 성동구 성수이로 78",
    "latitude": 37.5422307321142,
    "longitude": 127.0553454113797,
    "description": "높은 층고와 웅장한 분위기가 압도적인 성수동 대표 갤러리 카페",
    "tags": "#친구 #데이트 #감성적인 #디저트맛집 #가성비",
    "image_url": "https://placehold.co/400x300?text=Daelim",
    "review_count": 2024,
    "region": "성수"
  },
  {
    "name": "소문난성수감자탕",
    "category": "한식",
    "address": "서울 성동구 연무장길 45",
    "latitude": 37.5428272668862,
    "longitude": 127.0544469600713,
    "description": "성시경 먹을텐데 추천, 살코기가 푸짐한 줄 서서 먹는 감자탕",
    "tags": "#해장 #친구 #시끌벅적한 #로컬맛집 #가성비",
    "image_url": "https://placehold.co/400x300?text=Gamjatang",
    "review_count": 3398,
    "region": "성수"
  },
  {
    "name": "팩피",
    "category": "양식(파스타)",
    "address": "서울 성동구 왕십리로 136",
    "latitude": 37.546660692338,
    "longitude": 127.0435307155003,
    "description": "미쉐린 빕구르망 선정, 고수 파스타 등 독창적인 메뉴가 있는 곳",
    "tags": "#기념일 #소개팅 #고급스러운 #맛있는 #가격대있는",
    "image_url": "https://placehold.co/400x300?text=Fagp",
    "review_count": 2377,
    "region": "성수"
  },
  {
    "name": "할머니의레시피",
    "category": "한식",
    "address": "서울 성동구 서울숲2길 44-12",
    "latitude": 37.546180612887,
    "longitude": 127.0433938084284,
    "description": "정갈하고 깔끔한 가정식 한 상 차림, 속이 편안한 한 끼",
    "tags": "#해장 #회식 #시끌벅적한 #재료신선 #저렴한",
    "image_url": "https://placehold.co/400x300?text=Grandma",
    "review_count": 4546,
    "region": "성수"
  },
  {
    "name": "제스티살룬 성수",
    "category": "양식(버거)",
    "address": "서울 성동구 서울숲2길 19",
    "latitude": 37.5471652809487,
    "longitude": 127.0416994950347,
    "description": "톡 쏘는 와사비 쉬림프 버거가 일품인 수제버거 맛집",
    "tags": "#기념일 #데이트 #조용한 #플레이팅예쁜 #가격대있는",
    "image_url": "https://placehold.co/400x300?text=Zesty",
    "review_count": 1514,
    "region": "성수"
  },
  {
    "name": "난포",
    "category": "한식(퓨전)",
    "address": "서울 성동구 서울숲4길 18-8",
    "latitude": 37.546814440643,
    "longitude": 127.0428157138327,
    "description": "강된장 쌈밥과 제철회묵은지말이 등 비주얼 좋은 퓨전 한식",
    "tags": "#해장 #회식 #활기찬 #로컬맛집 #저렴한",
    "image_url": "https://placehold.co/400x300?text=Nanpo",
    "review_count": 1931,
    "region": "성수"
  },
  {
    "name": "성수다락",
    "category": "양식",
    "address": "서울 성동구 성수이로7길 24",
    "latitude": 37.5432440013956,
    "longitude": 127.0547049606772,
    "description": "매콤크림파스타와 오므라이스가 맛있는 분위기 좋은 데이트 코스",
    "tags": "#기념일 #소개팅 #조용한 #플레이팅예쁜 #가격대있는",
    "image_url": "https://placehold.co/400x300?text=Darak",
    "review_count": 4316,
    "region": "성수"
  },
  {
    "name": "블루보틀 성수",
    "category": "카페",
    "address": "서울 성동구 아차산로 7",
    "latitude": 37.5480157407659,
    "longitude": 127.0450709380236,
    "description": "커피계의 애플, 성수동 붉은 벽돌 건물 1호점의 상징성",
    "tags": "#혼카페 #친구 #감성적인 #디저트맛집 #가성비",
    "image_url": "https://placehold.co/400x300?text=BlueBottle",
    "review_count": 4232,
    "region": "성수"
  },
  {
    "name": "르프리크",
    "category": "양식(버거)",
    "address": "서울 성동구 연무장5길 9-16",
    "latitude": 37.5435646408504,
    "longitude": 127.0565424620544,
    "description": "내슈빌 핫치킨 버거의 진수, 매콤하고 바삭한 치킨 패티",
    "tags": "#기념일 #소개팅 #조용한 #맛있는 #가격대있는",
    "image_url": "https://placehold.co/400x300?text=LeFreak",
    "review_count": 1522,
    "region": "성수"
  },
  {
    "name": "우래옥",
    "category": "한식(평양냉면)",
    "address": "서울 중구 창경궁로 62-29",
    "latitude": 37.5682753170688,
    "longitude": 126.9987575209406,
    "description": "평양냉면의 교과서, 진한 육향과 메밀면의 조화가 완벽한 곳",
    "tags": "#친구 #해장 #편안한 #로컬맛집 #가성비",
    "image_url": "https://placehold.co/400x300?text=WooLaeOak",
    "review_count": 652,
    "region": "종로/을지로"
  },
  {
    "name": "익선동 온천집",
    "category": "일식(샤브샤브)",
    "address": "서울 종로구 돈화문로11나길 31-8",
    "latitude": 37.5742785737042,
    "longitude": 126.9904882077336,
    "description": "일본 료칸에 온 듯한 분위기, 온천수 같은 육수의 샤브샤브",
    "tags": "#술한잔 #혼밥 #조용한 #장인정신 #가성비",
    "image_url": "https://placehold.co/400x300?text=Oncheon",
    "review_count": 1627,
    "region": "종로/을지로"
  },
  {
    "name": "광장시장 육회자매집",
    "category": "한식(육회)",
    "address": "서울 종로구 종로 200-4",
    "latitude": 37.570566641922,
    "longitude": 126.9996396549811,
    "description": "광장시장 필수 코스, 신선하고 쫄깃한 육회와 육회비빔밥",
    "tags": "#친구 #해장 #편안한 #로컬맛집 #가성비",
    "image_url": "https://placehold.co/400x300?text=Yukhoe",
    "review_count": 3956,
    "region": "종로/을지로"
  },
  {
    "name": "을지다락",
    "category": "양식",
    "address": "서울 중구 수표로10길 19",
    "latitude": 37.5644561010736,
    "longitude": 126.9912282584225,
    "description": "을지로 감성 가득, 가츠산도와 파스타가 맛있는 숨은 맛집",
    "tags": "#기념일 #데이트 #고급스러운 #맛있는 #가격대있는",
    "image_url": "https://placehold.co/400x300?text=EuljiDarak",
    "review_count": 4419,
    "region": "종로/을지로"
  },
  {
    "name": "안국 레이어드",
    "category": "카페/베이커리",
    "address": "서울 종로구 북촌로2길 2-3",
    "latitude": 37.5774565250472,
    "longitude": 126.9855077901487,
    "description": "영국 가정집 분위기, 다양한 종류의 홈메이드 스콘 천국",
    "tags": "#데이트 #혼카페 #조용한 #디저트맛집 #가성비",
    "image_url": "https://placehold.co/400x300?text=Layered",
    "review_count": 4608,
    "region": "종로/을지로"
  },
  {
    "name": "토속촌 삼계탕",
    "category": "한식",
    "address": "서울 종로구 자하문로5길 5",
    "latitude": 37.577523064903,
    "longitude": 126.9716724076428,
    "description": "대통령도 즐겨 찾던 진하고 걸쭉한 국물의 삼계탕 명가",
    "tags": "#친구 #해장 #편안한 #로컬맛집 #가성비",
    "image_url": "https://placehold.co/400x300?text=Tosokchon",
    "review_count": 1403,
    "region": "종로/을지로"
  },
  {
    "name": "청수당",
    "category": "카페",
    "address": "서울 종로구 돈화문로11나길 31-9",
    "latitude": 37.5743548519495,
    "longitude": 126.9905920059502,
    "description": "대나무 숲과 등불이 어우러진 몽환적인 분위기의 포토존 카페",
    "tags": "#디저트 #데이트 #조용한 #커피맛집 #가성비",
    "image_url": "https://placehold.co/400x300?text=Cheongsu",
    "review_count": 735,
    "region": "종로/을지로"
  },
  {
    "name": "명동교자 본점",
    "category": "한식(칼국수)",
    "address": "서울 중구 명동10길 29",
    "latitude": 37.562534163167,
    "longitude": 126.9856442637608,
    "description": "마늘 김치와 진한 닭 육수 칼국수, 미쉐린 가이드 선정 맛집",
    "tags": "#친구 #가족모임 #시끌벅적한 #푸짐한 #저렴한",
    "image_url": "https://placehold.co/400x300?text=Myeongdong",
    "review_count": 1318,
    "region": "종로/을지로"
  },
  {
    "name": "금돼지식당",
    "category": "한식(고기)",
    "address": "서울 중구 다산로 149",
    "latitude": 37.5561001353218,
    "longitude": 127.0108870692566,
    "description": "BTS도 다녀간 프리미엄 돼지고기, 본삼겹과 껍데기 맛집",
    "tags": "#회식 #친구 #시끌벅적한 #푸짐한 #고급스러운",
    "image_url": "https://placehold.co/400x300?text=GoldPig",
    "review_count": 3973,
    "region": "종로/을지로"
  },
  {
    "name": "부촌육회",
    "category": "한식(육회)",
    "address": "서울 종로구 종로 200-12",
    "latitude": 37.5703755732706,
    "longitude": 126.9998641565257,
    "description": "미쉐린 가이드에 선정된 신선하고 고소한 육회 전문점",
    "tags": "#가족모임 #해장 #활기찬 #로컬맛집 #가성비",
    "image_url": "https://placehold.co/400x300?text=Buchon",
    "review_count": 1553,
    "region": "종로/을지로"
  },
  {
    "name": "바토스 이태원점",
    "category": "멕시칸",
    "address": "서울 용산구 이태원로15길 1",
    "latitude": 37.5348725739453,
    "longitude": 126.9942669592675,
    "description": "김치 프라이즈와 타코 등 퓨전 멕시칸 요리를 즐기는 핫플",
    "tags": "#모임 #이색데이트 #힙한 #특별한메뉴 #가성비",
    "image_url": "https://placehold.co/400x300?text=Vatos",
    "review_count": 1894,
    "region": "이태원/한남"
  },
  {
    "name": "몽탄",
    "category": "한식(고기)",
    "address": "서울 용산구 백범로99길 50",
    "latitude": 37.5367760153489,
    "longitude": 126.9701581122261,
    "description": "짚불 향 가득한 우대갈비, 서울에서 가장 웨이팅 긴 고기집",
    "tags": "#가족모임 #회식 #편안한 #재료신선 #고급스러운",
    "image_url": "https://placehold.co/400x300?text=Mongtan",
    "review_count": 3962,
    "region": "이태원/한남"
  },
  {
    "name": "한남동자리",
    "category": "중식",
    "address": "서울 용산구 이태원로54길 5-5",
    "latitude": 37.5361163535268,
    "longitude": 127.0016347546771,
    "description": "수요미식회에 소개된 몽글몽글한 목화솜 탕수육 맛집",
    "tags": "#이색데이트 #친구 #이국적인 #현지의맛 #가성비",
    "image_url": "https://placehold.co/400x300?text=Jari",
    "review_count": 4979,
    "region": "이태원/한남"
  },
  {
    "name": "오리지널팬케이크하우스",
    "category": "양식(브런치)",
    "address": "서울 용산구 이태원로 153",
    "latitude": 37.5345453186246,
    "longitude": 126.9935655128124,
    "description": "미국 정통 방식의 팬케이크와 브런치를 맛볼 수 있는 곳",
    "tags": "#기념일 #소개팅 #분위기좋은 #플레이팅예쁜 #가격대있는",
    "image_url": "https://placehold.co/400x300?text=OPH",
    "review_count": 3951,
    "region": "이태원/한남"
  },
  {
    "name": "난포 한남",
    "category": "한식(퓨전)",
    "address": "서울 용산구 이태원로49길 18",
    "latitude": 37.537613025558,
    "longitude": 127.0004173651752,
    "description": "정갈한 한식과 모던한 분위기, 한남동 데이트 코스로 제격",
    "tags": "#가족모임 #해장 #시끌벅적한 #푸짐한 #가성비",
    "image_url": "https://placehold.co/400x300?text=NanpoHannam",
    "review_count": 4367,
    "region": "이태원/한남"
  },
  {
    "name": "써머레인",
    "category": "양식(브런치)",
    "address": "서울 용산구 이태원로55가길 49",
    "latitude": 37.5385719547929,
    "longitude": 127.0018434178512,
    "description": "호주식 브런치 카페, 아보카도 토스트와 커피가 훌륭함",
    "tags": "#기념일 #소개팅 #분위기좋은 #맛있는 #가격대있는",
    "image_url": "https://placehold.co/400x300?text=SummerLane",
    "review_count": 3057,
    "region": "이태원/한남"
  },
  {
    "name": "매덕스피자",
    "category": "양식(피자)",
    "address": "서울 용산구 이태원로26길 26",
    "latitude": 37.5332800896417,
    "longitude": 126.9950681514708,
    "description": "백종원도 인정한 큼직한 미국식 조각 피자 전문점",
    "tags": "#소개팅 #데이트 #분위기좋은 #플레이팅예쁜 #가격대있는",
    "image_url": "https://placehold.co/400x300?text=Maddux",
    "review_count": 4140,
    "region": "이태원/한남"
  },
  {
    "name": "단골집",
    "category": "한식(주점)",
    "address": "서울 용산구 보광로59길 14-1",
    "latitude": 37.5330125834232,
    "longitude": 126.9958596598431,
    "description": "매콤크림파스타와 육회가 맛있는 이태원 감성 주점",
    "tags": "#가족모임 #해장 #편안한 #로컬맛집 #저렴한",
    "image_url": "https://placehold.co/400x300?text=Dangol",
    "review_count": 3687,
    "region": "이태원/한남"
  },
  {
    "name": "앤트러사이트 한남",
    "category": "카페",
    "address": "서울 용산구 이태원로 240",
    "latitude": 37.5360281183982,
    "longitude": 127.0006991026749,
    "description": "로스터리 카페의 진수, 힙한 분위기에서 즐기는 드립커피",
    "tags": "#친구 #디저트 #사진찍기좋은 #디저트맛집 #가성비",
    "image_url": "https://placehold.co/400x300?text=Anthracite",
    "review_count": 1681,
    "region": "이태원/한남"
  },
  {
    "name": "부자피자",
    "category": "양식(피자)",
    "address": "서울 용산구 이태원로55가길 28",
    "latitude": 37.5387869177304,
    "longitude": 127.002233076285,
    "description": "화덕에서 구워낸 쫄깃한 도우와 신선한 토핑의 이태리 피자",
    "tags": "#소개팅 #데이트 #조용한 #맛있는 #가격대있는",
    "image_url": "https://placehold.co/400x300?text=Buja",
    "review_count": 4410,
    "region": "이태원/한남"
  },
  {
    "name": "진저베어",
    "category": "카페/베이커리",
    "address": "서울 송파구 백제고분로41길 43-7",
    "latitude": 37.5097168884343,
    "longitude": 127.1032451141512,
    "description": "다양한 종류의 미트파이가 있는 유럽 감성 베이커리 카페",
    "tags": "#혼카페 #데이트 #조용한 #디저트맛집 #가성비",
    "image_url": "https://placehold.co/400x300?text=GingerBear",
    "review_count": 4601,
    "region": "잠실/송리단길"
  },
  {
    "name": "오제제 잠실",
    "category": "일식(돈카츠)",
    "address": "서울 송파구 올림픽로 300 롯데월드몰",
    "latitude": 37.5132555038126,
    "longitude": 127.100157269049,
    "description": "저온 숙성 돈카츠와 쫄깃한 자가제면 우동이 일품인 곳",
    "tags": "#데이트 #혼밥 #조용한 #장인정신 #퀄리티높은",
    "image_url": "https://placehold.co/400x300?text=Ojeje",
    "review_count": 3136,
    "region": "잠실/송리단길"
  },
  {
    "name": "바이킹스워프 잠실점",
    "category": "뷔페(랍스터)",
    "address": "서울 송파구 올림픽로 300",
    "latitude": 37.5133424380856,
    "longitude": 127.1002755976804,
    "description": "랍스터를 무제한으로 즐길 수 있는 국내 최초 랍스터 뷔페",
    "tags": "#친구 #모임 #이국적인 #특별한메뉴 #가성비",
    "image_url": "https://placehold.co/400x300?text=Vikings",
    "review_count": 1726,
    "region": "잠실/송리단길"
  },
  {
    "name": "해주냉면",
    "category": "한식(냉면)",
    "address": "서울 송파구 올림픽로12길 5-22",
    "latitude": 37.5105354731729,
    "longitude": 127.0818762618083,
    "description": "스트레스 풀리는 강력한 매운맛의 비빔냉면 성지",
    "tags": "#가족모임 #회식 #편안한 #로컬맛집 #가성비",
    "image_url": "https://placehold.co/400x300?text=Haeju",
    "review_count": 2626,
    "region": "잠실/송리단길"
  },
  {
    "name": "갓잇 송리단길점",
    "category": "멕시칸",
    "address": "서울 송파구 백제고분로45길 4-14",
    "latitude": 37.5101122251233,
    "longitude": 127.1044521325881,
    "description": "신의 한 수, 한국인 입맛에 딱 맞는 깔끔한 타코 플래터",
    "tags": "#모임 #친구 #힙한 #현지의맛 #가성비",
    "image_url": "https://placehold.co/400x300?text=GodEat",
    "review_count": 2052,
    "region": "잠실/송리단길"
  },
  {
    "name": "세상의모든아침 롯데월드몰점",
    "category": "양식(브런치)",
    "address": "서울 송파구 올림픽로 300",
    "latitude": 37.5132432502273,
    "longitude": 127.1001084670856,
    "description": "화려한 샹들리에와 뷰가 멋진 로맨틱한 브런치 레스토랑",
    "tags": "#기념일 #데이트 #조용한 #플레이팅예쁜 #가격대있는",
    "image_url": "https://placehold.co/400x300?text=Semoa",
    "review_count": 2749,
    "region": "잠실/송리단길"
  },
  {
    "name": "서보",
    "category": "태국음식",
    "address": "서울 송파구 오금로18길 5",
    "latitude": 37.5085772225787,
    "longitude": 127.1062477783551,
    "description": "현직 대사관 셰프가 운영하는 줄 서서 먹는 태국 족발 덮밥",
    "tags": "#이색데이트 #친구 #힙한 #현지의맛 #가성비",
    "image_url": "https://placehold.co/400x300?text=Seobo",
    "review_count": 344,
    "region": "잠실/송리단길"
  },
  {
    "name": "엘리스리틀이태리",
    "category": "양식(화덕피자)",
    "address": "서울 송파구 백제고분로41길 43-21",
    "latitude": 37.5098072492576,
    "longitude": 127.1030559518256,
    "description": "석촌호수 근처 분위기 좋은 화덕피자와 파스타 맛집",
    "tags": "#기념일 #데이트 #분위기좋은 #맛있는 #가격대있는",
    "image_url": "https://placehold.co/400x300?text=Ellis",
    "review_count": 867,
    "region": "잠실/송리단길"
  },
  {
    "name": "멘야하나비 본점",
    "category": "일식(마제소바)",
    "address": "서울 송파구 백제고분로45길 38",
    "latitude": 37.5092295622538,
    "longitude": 127.1045711414237,
    "description": "수요미식회에 나온 마제소바의 원조, 감칠맛 폭발 비빔면",
    "tags": "#데이트 #술한잔 #조용한 #장인정신 #퀄리티높은",
    "image_url": "https://placehold.co/400x300?text=Hanabi",
    "review_count": 2554,
    "region": "잠실/송리단길"
  },
  {
    "name": "니커버커베이글",
    "category": "카페/베이커리",
    "address": "서울 송파구 석촌호수로 268",
    "latitude": 37.5082735225697,
    "longitude": 127.1005615508111,
    "description": "뉴욕 본점의 맛 그대로, 다양한 크림치즈와 쫀득한 베이글",
    "tags": "#혼카페 #친구 #조용한 #디저트맛집 #가성비",
    "image_url": "https://placehold.co/400x300?text=Knickerbocker",
    "review_count": 3332,
    "region": "잠실/송리단길"
  },
  {
    "name": "진주집",
    "category": "한식(콩국수)",
    "address": "서울 영등포구 국제금융로6길 33",
    "latitude": 37.5215629881435,
    "longitude": 126.9283102754825,
    "description": "여의도 직장인들의 소울푸드, 진하고 걸쭉한 콩국수 맛집",
    "tags": "#해장 #가족모임 #활기찬 #푸짐한 #저렴한",
    "image_url": "https://placehold.co/400x300?text=Jinju",
    "review_count": 3814,
    "region": "여의도"
  },
  {
    "name": "더현대서울 카멜커피",
    "category": "카페",
    "address": "서울 영등포구 여의대로 108",
    "latitude": 37.525931048409,
    "longitude": 126.9284715061956,
    "description": "웨이팅 극악의 핫플, 부드러운 크림이 올라가는 시그니처 커피",
    "tags": "#데이트 #디저트 #감성적인 #디저트맛집 #가성비",
    "image_url": "https://placehold.co/400x300?text=Camel",
    "review_count": 1815,
    "region": "여의도"
  },
  {
    "name": "화목순대국",
    "category": "한식(국밥)",
    "address": "서울 영등포구 여의대방로 383",
    "latitude": 37.5204967906542,
    "longitude": 126.9288296334493,
    "description": "유재석도 단골인 내장 가득 들어간 얼큰한 순대국 노포",
    "tags": "#가족모임 #회식 #편안한 #재료신선 #가성비",
    "image_url": "https://placehold.co/400x300?text=Hwamok",
    "review_count": 980,
    "region": "여의도"
  },
  {
    "name": "가양칼국수버섯매운탕",
    "category": "한식",
    "address": "서울 영등포구 국제금융로 78",
    "latitude": 37.5195881306062,
    "longitude": 126.9312134653844,
    "description": "버섯과 미나리가 무한리필, 가성비 좋은 얼큰한 샤브 칼국수",
    "tags": "#회식 #친구 #활기찬 #재료신선 #가성비",
    "image_url": "https://placehold.co/400x300?text=Gayang",
    "review_count": 3016,
    "region": "여의도"
  },
  {
    "name": "더현대서울 이탈리",
    "category": "양식",
    "address": "서울 영등포구 여의대로 108",
    "latitude": 37.5259258499286,
    "longitude": 126.9284600259578,
    "description": "이탈리아 식재료로 만드는 정통 파스타와 피자를 즐기는 곳",
    "tags": "#소개팅 #데이트 #고급스러운 #플레이팅예쁜 #가격대있는",
    "image_url": "https://placehold.co/400x300?text=Eataly",
    "review_count": 4014,
    "region": "여의도"
  },
  {
    "name": "정인면옥",
    "category": "한식(평양냉면)",
    "address": "서울 영등포구 국회대로76길 10",
    "latitude": 37.529866463049,
    "longitude": 126.9221688510686,
    "description": "맑고 깨끗한 육수의 평양냉면, 미쉐린 가이드 빕구르망",
    "tags": "#해장 #가족모임 #시끌벅적한 #재료신선 #가성비",
    "image_url": "https://placehold.co/400x300?text=Jungin",
    "review_count": 3635,
    "region": "여의도"
  },
  {
    "name": "피그인더가든 여의도",
    "category": "샐러드",
    "address": "서울 영등포구 여의대로 56",
    "latitude": 37.5238986604204,
    "longitude": 126.9245771506032,
    "description": "신선한 채소와 다양한 토핑으로 즐기는 건강하고 맛있는 한 끼",
    "tags": "#모임 #이색데이트 #힙한 #현지의맛 #가성비",
    "image_url": "https://placehold.co/400x300?text=PigInTheGarden",
    "review_count": 1236,
    "region": "여의도"
  },
  {
    "name": "바스버거 여의도점",
    "category": "양식(버거)",
    "address": "서울 영등포구 국제금융로 20",
    "latitude": 37.5244387322836,
    "longitude": 126.9252621840797,
    "description": "무제한 감자칩과 함께 즐기는 육즙 가득 수제버거와 맥주",
    "tags": "#기념일 #데이트 #분위기좋은 #맛있는 #가격대있는",
    "image_url": "https://placehold.co/400x300?text=BasBurger",
    "review_count": 3995,
    "region": "여의도"
  },
  {
    "name": "콘래드서울 버티고",
    "category": "양식(바)",
    "address": "서울 영등포구 국제금융로 10",
    "latitude": 37.5252737340291,
    "longitude": 126.9257659855485,
    "description": "빌딩 숲 사이에서 즐기는 루프탑 바, 칵테일과 야경 맛집",
    "tags": "#데이트 #기념일 #고급스러운 #맛있는 #가격대있는",
    "image_url": "https://placehold.co/400x300?text=Vertigo",
    "review_count": 4626,
    "region": "여의도"
  },
  {
    "name": "여의도 장어",
    "category": "한식(보양식)",
    "address": "서울 영등포구 여의대방로65길 6",
    "latitude": 37.5201967558521,
    "longitude": 126.9272543871665,
    "description": "기력 보충에 최고, 숯불에 구워주는 두툼하고 고소한 장어구이",
    "tags": "#회식 #친구 #활기찬 #푸짐한 #가성비",
    "image_url": "https://placehold.co/400x300?text=Eel",
    "review_count": 2137,
    "region": "여의도"
  },
  {
    "name": "미뉴트빠삐용",
    "category": "카페/디저트",
    "address": "서울 강남구 도산대로51길 37",
    "latitude": 37.5251590643658,
    "longitude": 127.036535552587,
    "description": "유럽 극장 같은 분위기에서 즐기는 갓 튀긴 츄러스와 딥초코",
    "tags": "#친구 #데이트 #사진찍기좋은 #디저트맛집 #가성비",
    "image_url": "https://placehold.co/400x300?text=Minute",
    "review_count": 4530,
    "region": "압구정/신사"
  },
  {
    "name": "꽁티드툴레아",
    "category": "양식(브런치)",
    "address": "서울 강남구 도산대로49길 39",
    "latitude": 37.5246398282532,
    "longitude": 127.0360686048147,
    "description": "주택을 개조한 감성 가득한 테라스에서 즐기는 브런치와 와인",
    "tags": "#기념일 #데이트 #조용한 #플레이팅예쁜 #가격대있는",
    "image_url": "https://placehold.co/400x300?text=Conte",
    "review_count": 3905,
    "region": "압구정/신사"
  },
  {
    "name": "최가네버섯샤브매운탕",
    "category": "한식",
    "address": "서울 강남구 도산대로51길 36",
    "latitude": 37.5253323612,
    "longitude": 127.0364545137373,
    "description": "압구정 로데오의 터줏대감, 얼큰한 국물의 버섯 샤브샤브",
    "tags": "#친구 #해장 #시끌벅적한 #푸짐한 #가성비",
    "image_url": "https://placehold.co/400x300?text=Choigane",
    "review_count": 3415,
    "region": "압구정/신사"
  },
  {
    "name": "하루",
    "category": "일식(소바)",
    "address": "서울 강남구 언주로172길 56",
    "latitude": 37.5268878629294,
    "longitude": 127.0375029993418,
    "description": "살얼음 동동 띄운 냉모밀과 바삭한 돈까스의 환상 조합",
    "tags": "#데이트 #혼밥 #조용한 #장인정신 #퀄리티높은",
    "image_url": "https://placehold.co/400x300?text=Haru",
    "review_count": 2953,
    "region": "압구정/신사"
  },
  {
    "name": "까폼",
    "category": "태국음식",
    "address": "서울 강남구 선릉로153길 18",
    "latitude": 37.5248264932532,
    "longitude": 127.0381878115081,
    "description": "압도적인 비주얼의 랭쎕(등뼈찜)이 유명한 태국 현지 맛집",
    "tags": "#모임 #친구 #이국적인 #현지의맛 #가성비",
    "image_url": "https://placehold.co/400x300?text=Kkapom",
    "review_count": 1075,
    "region": "압구정/신사"
  },
  {
    "name": "호족반",
    "category": "한식(퓨전)",
    "address": "서울 강남구 언주로164길 39",
    "latitude": 37.5255346109181,
    "longitude": 127.0348844524646,
    "description": "뉴욕 감성의 모던 한식, 트러플 감자전과 NY양념갈비",
    "tags": "#가족모임 #해장 #편안한 #로컬맛집 #가성비",
    "image_url": "https://placehold.co/400x300?text=Hojokban",
    "review_count": 2820,
    "region": "압구정/신사"
  },
  {
    "name": "신사소곱창",
    "category": "한식(고기)",
    "address": "서울 강남구 압구정로2길 62",
    "latitude": 37.5186603988632,
    "longitude": 127.0195189563713,
    "description": "곱이 꽉 찬 소곱창과 마무리 볶음밥이 예술인 가로수길 맛집",
    "tags": "#친구 #해장 #시끌벅적한 #로컬맛집 #고급스러운",
    "image_url": "https://placehold.co/400x300?text=SinsaSo",
    "review_count": 2478,
    "region": "압구정/신사"
  },
  {
    "name": "칙피스 신사점",
    "category": "양식(비건)",
    "address": "서울 강남구 강남대로152길 69",
    "latitude": 37.5192585294282,
    "longitude": 127.0223199750924,
    "description": "지중해식 샐러드와 팔라펠을 즐길 수 있는 건강한 비건 맛집",
    "tags": "#소개팅 #데이트 #분위기좋은 #맛있는 #가격대있는",
    "image_url": "https://placehold.co/400x300?text=Chickpeace",
    "review_count": 1509,
    "region": "압구정/신사"
  },
  {
    "name": "마일스톤커피",
    "category": "카페",
    "address": "서울 강남구 논현로159길 49",
    "latitude": 37.5218980030473,
    "longitude": 127.0264743495719,
    "description": "인생 라떼를 만날 수 있는 곳, 분위기 좋은 로스터리 카페",
    "tags": "#데이트 #혼카페 #조용한 #커피맛집 #가성비",
    "image_url": "https://placehold.co/400x300?text=Milestone",
    "review_count": 1646,
    "region": "압구정/신사"
  },
  {
    "name": "길버트버거앤프라이즈",
    "category": "양식(버거)",
    "address": "서울 강남구 도산대로15길 47",
    "latitude": 37.5198949424942,
    "longitude": 127.0228214721728,
    "description": "육즙 가득한 패티와 신선한 재료의 정통 미국식 수제버거",
    "tags": "#소개팅 #기념일 #고급스러운 #맛있는 #가격대있는",
    "image_url": "https://placehold.co/400x300?text=Gilbert",
    "review_count": 1670,
    "region": "압구정/신사"
  },
  {
    "name": "칸다소바",
    "category": "일식(마제소바)",
    "address": "서울 종로구 자하문로7길 5",
    "latitude": 37.5776569681608,
    "longitude": 126.9715653493118,
    "description": "도쿄 라멘 대회 우승, 62가지 재료로 만든 깊은 맛의 마제소바",
    "tags": "#술한잔 #혼밥 #조용한 #장인정신 #퀄리티높은",
    "image_url": "https://placehold.co/400x300?text=Kanda",
    "review_count": 4099,
    "region": "서촌/광화문"
  },
  {
    "name": "스태픽스",
    "category": "카페",
    "address": "서울 종로구 사직로9길 22",
    "latitude": 37.5758160397269,
    "longitude": 126.9668451140379,
    "description": "커다란 은행나무와 넓은 잔디밭이 있는 힐링 뷰 맛집",
    "tags": "#데이트 #친구 #감성적인 #디저트맛집 #가성비",
    "image_url": "https://placehold.co/400x300?text=Staffpicks",
    "review_count": 1019,
    "region": "서촌/광화문"
  },
  {
    "name": "남도분식 서촌점",
    "category": "분식",
    "address": "서울 종로구 옥인2길 2",
    "latitude": 37.5805660735176,
    "longitude": 126.9692362921579,
    "description": "상추튀김과 시래기 떡볶이 등 이색 메뉴가 있는 레트로 분식",
    "tags": "#이색데이트 #모임 #힙한 #현지의맛 #가성비",
    "image_url": "https://placehold.co/400x300?text=Namdo",
    "review_count": 4069,
    "region": "서촌/광화문"
  },
  {
    "name": "영화루",
    "category": "중식",
    "address": "서울 종로구 자하문로7길 65",
    "latitude": 37.5794696638871,
    "longitude": 126.9688695871994,
    "description": "영화 촬영지로도 유명한 매운 고추간짜장 맛집 노포",
    "tags": "#모임 #친구 #이국적인 #현지의맛 #가성비",
    "image_url": "https://placehold.co/400x300?text=Yeonghwa",
    "review_count": 3470,
    "region": "서촌/광화문"
  },
  {
    "name": "대충유원지 인왕산",
    "category": "카페/바",
    "address": "서울 종로구 필운대로 46",
    "latitude": 37.5786920892321,
    "longitude": 126.9682983600203,
    "description": "인왕산이 보이는 고즈넉한 뷰, 차와 위스키를 즐기는 공간",
    "tags": "#디저트 #친구 #감성적인 #디저트맛집 #가성비",
    "image_url": "https://placehold.co/400x300?text=Daechung",
    "review_count": 3816,
    "region": "서촌/광화문"
  },
  {
    "name": "안국 고도",
    "category": "카페",
    "address": "서울 종로구 창덕궁1길 33",
    "latitude": 37.5795533767861,
    "longitude": 126.9875554879951,
    "description": "창덕궁 뷰가 내려다보이는 루프탑에서 즐기는 여유로운 커피",
    "tags": "#디저트 #친구 #조용한 #디저트맛집 #가성비",
    "image_url": "https://placehold.co/400x300?text=Godo",
    "review_count": 3583,
    "region": "서촌/광화문"
  },
  {
    "name": "소금집델리 안국",
    "category": "양식(샌드위치)",
    "address": "서울 종로구 북촌로4길 19",
    "latitude": 37.5792588295038,
    "longitude": 126.9862288903754,
    "description": "직접 만든 잠봉 햄이 듬뿍 들어간 잠봉뵈르 샌드위치 맛집",
    "tags": "#데이트 #소개팅 #분위기좋은 #플레이팅예쁜 #가격대있는",
    "image_url": "https://placehold.co/400x300?text=SaltHouse",
    "review_count": 4325,
    "region": "서촌/광화문"
  },
  {
    "name": "도트블랭킷",
    "category": "양식(브런치)",
    "address": "서울 종로구 윤보선길 22",
    "latitude": 37.5768952603227,
    "longitude": 126.9845451768521,
    "description": "아보카도와 새우가 올라간 오픈 샌드위치가 맛있는 한옥 브런치",
    "tags": "#소개팅 #기념일 #분위기좋은 #맛있는 #가격대있는",
    "image_url": "https://placehold.co/400x300?text=DotBlanket",
    "review_count": 1082,
    "region": "서촌/광화문"
  },
  {
    "name": "깡통만두",
    "category": "한식",
    "address": "서울 종로구 북촌로2길 5-6",
    "latitude": 37.5785813884132,
    "longitude": 126.9858044087746,
    "description": "육전이 올라간 비빔국수와 속이 꽉 찬 손만두가 일품",
    "tags": "#가족모임 #친구 #활기찬 #로컬맛집 #저렴한",
    "image_url": "https://placehold.co/400x300?text=Kkangtong",
    "review_count": 3685,
    "region": "서촌/광화문"
  },
  {
    "name": "삼청동 수제비",
    "category": "한식",
    "address": "서울 종로구 삼청로 101",
    "latitude": 37.584519981534,
    "longitude": 126.9818665893365,
    "description": "미쉐린 가이드 선정, 얇게 떼어낸 쫄깃한 수제비와 감자전",
    "tags": "#해장 #친구 #편안한 #로컬맛집 #가성비",
    "image_url": "https://placehold.co/400x300?text=Sujebi",
    "review_count": 4898,
    "region": "서촌/광화문"
  },
  {
    "name": "테디뵈르하우스",
    "category": "카페/베이커리",
    "address": "서울 용산구 한강대로40가길 42",
    "latitude": 37.5305198319848,
    "longitude": 126.9722746559819,
    "description": "동화 속 세상 같은 인테리어, 버터 향 가득한 크루아상 맛집",
    "tags": "#디저트 #친구 #감성적인 #디저트맛집 #가성비",
    "image_url": "https://placehold.co/400x300?text=Teddy",
    "review_count": 4815,
    "region": "용산"
  },
  {
    "name": "꺼거",
    "category": "중식",
    "address": "서울 용산구 한강대로48길 10",
    "latitude": 37.5312842663705,
    "longitude": 126.9728607275001,
    "description": "홍콩 뒷골목에 온 듯한 분위기, 오이무침과 볶음밥이 별미",
    "tags": "#모임 #친구 #힙한 #현지의맛 #가성비",
    "image_url": "https://placehold.co/400x300?text=Geogeo",
    "review_count": 1599,
    "region": "용산"
  },
  {
    "name": "쌤쌤쌤",
    "category": "양식",
    "address": "서울 용산구 한강대로50길 25",
    "latitude": 37.5315778388103,
    "longitude": 126.9732065966773,
    "description": "샌프란시스코 감성의 라자냐와 잠봉 파스타가 맛있는 핫플",
    "tags": "#데이트 #기념일 #조용한 #플레이팅예쁜 #가격대있는",
    "image_url": "https://placehold.co/400x300?text=SAMSAMSAM",
    "review_count": 1821,
    "region": "용산"
  },
  {
    "name": "주신당",
    "category": "바",
    "address": "서울 중구 퇴계로 411",
    "latitude": 37.5658253675647,
    "longitude": 127.0152377100697,
    "description": "무당집 컨셉의 독특한 입구, 12지신 시그니처 칵테일 바",
    "tags": "#친구 #모임 #힙한 #특별한메뉴 #가성비",
    "image_url": "https://placehold.co/400x300?text=Zoosin",
    "review_count": 1030,
    "region": "을지로/충무로"
  },
  {
    "name": "하니칼국수",
    "category": "한식",
    "address": "서울 중구 퇴계로 411-15",
    "latitude": 37.565914624856,
    "longitude": 127.0154419273519,
    "description": "알과 곤이가 폭탄처럼 들어간 얼큰한 알곤이 칼국수",
    "tags": "#회식 #친구 #활기찬 #푸짐한 #가성비",
    "image_url": "https://placehold.co/400x300?text=Hani",
    "review_count": 2799,
    "region": "을지로/충무로"
  },
  {
    "name": "금토일샴페인빠",
    "category": "바",
    "address": "서울 중구 을지로3가 344-9",
    "latitude": 37.5662674307829,
    "longitude": 126.9925853560064,
    "description": "합리적인 가격의 샴페인과 외부 음식 반입이 가능한 자유로운 곳",
    "tags": "#이색데이트 #모임 #이국적인 #특별한메뉴 #가성비",
    "image_url": "https://placehold.co/400x300?text=Champagne",
    "review_count": 4557,
    "region": "을지로/충무로"
  },
  {
    "name": "망원동 티라미수 본점",
    "category": "카페",
    "address": "서울 마포구 포은로 14",
    "latitude": 37.5502482573154,
    "longitude": 126.9064637809154,
    "description": "레트로 감성의 컵 티라미수, 망원동 디저트 투어 필수 코스",
    "tags": "#디저트 #혼카페 #조용한 #커피맛집 #가성비",
    "image_url": "https://placehold.co/400x300?text=MangwonTira",
    "review_count": 2410,
    "region": "망원/합정"
  },
  {
    "name": "이치젠",
    "category": "일식(텐동)",
    "address": "서울 마포구 망원로 62-1",
    "latitude": 37.5545122612719,
    "longitude": 126.9062544824552,
    "description": "눈앞에서 튀겨주는 바삭한 튀김이 올라간 일본식 텐동 맛집",
    "tags": "#혼밥 #술한잔 #조용한 #장인정신 #가성비",
    "image_url": "https://placehold.co/400x300?text=Ichizen",
    "review_count": 3897,
    "region": "망원/합정"
  },
  {
    "name": "오레노라멘 본점",
    "category": "일식(라멘)",
    "address": "서울 마포구 독막로6길 14",
    "latitude": 37.5485438017851,
    "longitude": 126.9184754936675,
    "description": "미쉐린 빕구르망 선정, 부드러운 거품의 진한 닭백탕 라멘",
    "tags": "#술한잔 #데이트 #심야식당 #장인정신 #퀄리티높은",
    "image_url": "https://placehold.co/400x300?text=Oreno",
    "review_count": 1328,
    "region": "망원/합정"
  },
  {
    "name": "서울케밥",
    "category": "양식(케밥)",
    "address": "서울 용산구 새창로 181",
    "latitude": 37.5398668572767,
    "longitude": 126.9632986966529,
    "description": "현지의 맛을 그대로 재현한 푸짐한 양고기 도너 케밥",
    "tags": "#소개팅 #데이트 #분위기좋은 #플레이팅예쁜 #가격대있는",
    "image_url": "https://placehold.co/400x300?text=SeoulKebab",
    "review_count": 2664,
    "region": "용산"
  }
]
