[
  {
    "name": "땀땀",
    "category": "아시안",
    "address": "서울 강남구 강남대로98길 12-5",
    "latitude": 37.50078426,
    "longitude": 127.028401,
    "description": "강남역 웨이팅 필수, 얼큰한 매운 소곱창 쌀국수의 원조 맛집",
    "tags": "#이색데이트 #모임 #힙한 #특별한메뉴 #가성비",
    "image_url": "/images/땀땀.jpg",
    "review_count": 3574,
    "price_range": "1.5만 원대",
    "convenience": "#유아의자 #키즈메뉴 #단체석있음 #주차가능 #내부화장실",
    "region": "강남"
  },
  {
    "name": "정식당",
    "category": "한식(파인다이닝)",
    "address": "서울 강남구 선릉로158길 11",
    "latitude": 37.52559853,
    "longitude": 127.0406192,
    "description": "미쉐린 2스타, 현대적으로 재해석한 창의적인 코리안 파인다이닝",
    "tags": "#회식 #친구 #편안한 #재료신선 #고급스러운",
    "image_url": "/images/정식당.jpg",
    "review_count": 244,
    "price_range": "10만 원대",
    "convenience": "#발렛파킹 #주차가능 #넓은좌석간격 #내부화장실 #휠체어가능",
    "region": "강남"
  },
  {
    "name": "다운타우너 청담",
    "category": "양식(버거)",
    "address": "서울 강남구 도산대로53길 14",
    "latitude": 37.52412739,
    "longitude": 127.0378216,
    "description": "아보카도 버거가 유명한 서울 수제버거의 대표주자",
    "tags": "#데이트 #기념일 #분위기좋은 #맛있는 #가격대있는",
    "image_url": "/images/다운타우너_청담.jpg",
    "review_count": 872,
    "price_range": "2만 원대",
    "convenience": "#내부화장실 #주차가능 #넓은좌석간격",
    "region": "강남"
  },
  {
    "name": "알라보 강남점",
    "category": "샐러드/브런치",
    "address": "서울 강남구 테헤란로 129",
    "latitude": 37.49969592,
    "longitude": 127.0321028,
    "description": "슈퍼푸드 아보카도를 활용한 건강하고 든든한 브런치 볼",
    "tags": "#데이트 #소개팅 #조용한 #플레이팅예쁜 #가격대있는",
    "image_url": "/images/알라보_강남점.jpg",
    "review_count": 1073,
    "price_range": "1.5만 원대",
    "convenience": "#내부화장실 #엘리베이터있음 #휠체어가능",
    "region": "강남"
  },
  {
    "name": "미즈컨테이너 강남웨스트",
    "category": "양식",
    "address": "서울 강남구 강남대로102길 13-3",
    "latitude": 37.50264961,
    "longitude": 127.0268297,
    "description": "떠먹는 피자와 샐러드 파스타가 유명한 활기찬 분위기의 맛집",
    "tags": "#소개팅 #기념일 #조용한 #플레이팅예쁜 #가격대있는",
    "image_url": "/images/미즈컨테이너_강남웨스트.jpg",
    "review_count": 3968,
    "price_range": "2만 원대",
    "convenience": "#내부화장실 #주차가능 #단체석있음 #넓은좌석간격",
    "region": "강남"
  },
  {
    "name": "고에몬 강남점",
    "category": "일식",
    "address": "서울 서초구 서초대로77길 54",
    "latitude": 37.50112506,
    "longitude": 127.0260067,
    "description": "폭신한 수플레 오믈렛과 명란 파스타가 맛있는 일본풍 스파게티 전문점",
    "tags": "#술한잔 #데이트 #아늑한 #정갈한 #퀄리티높은",
    "image_url": "/images/고에몬_강남점.jpg",
    "review_count": 2159,
    "price_range": "1.5만 원대",
    "convenience": "#내부화장실 #주차가능",
    "region": "강남"
  },
  {
    "name": "런던베이글뮤지엄 도산",
    "category": "카페/베이커리",
    "address": "서울 강남구 언주로168길 33",
    "latitude": 37.52626122,
    "longitude": 127.0354226,
    "description": "영국 감성 가득한 인테리어와 쫄깃한 베이글이 있는 최고의 핫플",
    "tags": "#혼카페 #데이트 #조용한 #디저트맛집 #가성비",
    "image_url": "/images/런던베이글뮤지엄_도산.jpg",
    "review_count": 1146,
    "price_range": "1만 원대",
    "convenience": "#유모차반입가능 #반려동물동반 #내부화장실",
    "region": "강남"
  },
  {
    "name": "마녀주방 강남점",
    "category": "양식",
    "address": "서울 강남구 강남대로94길 9",
    "latitude": 37.49939242,
    "longitude": 127.0281015,
    "description": "할로윈 컨셉의 독특한 인테리어와 이색적인 플레이팅이 돋보이는 곳",
    "tags": "#데이트 #소개팅 #고급스러운 #플레이팅예쁜 #가격대있는",
    "image_url": "/images/마녀주방_강남점.jpg",
    "review_count": 4716,
    "price_range": "3만 원대",
    "convenience": "#주차가능 #넓은좌석간격 #내부화장실 #발렛파킹",
    "region": "강남"
  },
  {
    "name": "감성타코 강남역점",
    "category": "멕시칸",
    "address": "서울 강남구 강남대로 406",
    "latitude": 37.49881443,
    "longitude": 127.0270347,
    "description": "푸짐한 파히타와 다양한 소스를 즐길 수 있는 모임 장소 추천",
    "tags": "#친구 #이색데이트 #이국적인 #특별한메뉴 #가성비",
    "image_url": "/images/감성타코_강남역점.jpg",
    "review_count": 513,
    "price_range": "1.5만 원대",
    "convenience": "#유아의자 #단체석있음 #내부화장실",
    "region": "강남"
  },
  {
    "name": "카페 노티드 청담",
    "category": "카페/디저트",
    "address": "서울 강남구 도산대로53길 15",
    "latitude": 37.52423365,
    "longitude": 127.0379296,
    "description": "입안 가득 부드러운 우유 크림 도넛으로 유명한 디저트 카페",
    "tags": "#혼카페 #데이트 #감성적인 #디저트맛집 #가성비",
    "image_url": "/images/카페_노티드_청담.jpg",
    "review_count": 2697,
    "price_range": "1만 원대",
    "convenience": "#유모차반입가능 #반려동물동반 #내부화장실 #주차가능",
    "region": "강남"
  },
  {
    "name": "연남토마 본점",
    "category": "퓨전일식",
    "address": "서울 마포구 월드컵북로4길 29",
    "latitude": 37.55836931,
    "longitude": 126.9248269,
    "description": "바질오일 파스타와 야키니쿠 덮밥이 맛있는 감성 식당",
    "tags": "#술한잔 #혼밥 #조용한 #장인정신 #퀄리티높은",
    "image_url": "/images/연남토마_본점.jpg",
    "review_count": 3010,
    "price_range": "2만 원대",
    "convenience": "#내부화장실 #주차가능 #넓은좌석간격",
    "region": "홍대/연남"
  },
  {
    "name": "바다회사랑",
    "category": "횟집",
    "address": "서울 마포구 동교로27길 60",
    "latitude": 37.55924899,
    "longitude": 126.9204477,
    "description": "겨울철 대방어 성지, 두툼한 회와 백김치 조합이 일품인 곳",
    "tags": "#이색데이트 #친구 #힙한 #현지의맛 #가성비",
    "image_url": "/images/바다회사랑.jpg",
    "review_count": 2574,
    "price_range": "3만 원대",
    "convenience": "#단체석있음 #주차가능 #내부화장실",
    "region": "홍대/연남"
  },
  {
    "name": "테일러커피 서교점",
    "category": "카페",
    "address": "서울 마포구 와우산로33길 46",
    "latitude": 37.55621333,
    "longitude": 126.9304755,
    "description": "블루리본 서베이가 인정한 크림모카와 아인슈페너 맛집",
    "tags": "#데이트 #혼카페 #감성적인 #디저트맛집 #가성비",
    "image_url": "/images/테일러커피_서교점.jpg",
    "review_count": 4975,
    "price_range": "1만 원대",
    "convenience": "#유모차반입가능 #반려동물동반 #내부화장실",
    "region": "홍대/연남"
  },
  {
    "name": "하카타분코",
    "category": "일식(라멘)",
    "address": "서울 마포구 독막로19길 43",
    "latitude": 37.54899812,
    "longitude": 126.9234688,
    "description": "진한 돼지사골 육수의 정통 일본식 돈코츠 라멘 전문점",
    "tags": "#혼밥 #데이트 #심야식당 #정갈한 #가성비",
    "image_url": "/images/하카타분코.jpg",
    "review_count": 2945,
    "price_range": "1.5만 원대",
    "convenience": "#내부화장실 #낮은문턱",
    "region": "홍대/연남"
  },
  {
    "name": "소이연남",
    "category": "태국음식",
    "address": "서울 마포구 동교로 267",
    "latitude": 37.56350054,
    "longitude": 126.925532,
    "description": "태국 현지 느낌 물씬 나는 진한 국물의 소고기 쌀국수",
    "tags": "#친구 #이색데이트 #힙한 #특별한메뉴 #가성비",
    "image_url": "/images/소이연남.jpg",
    "review_count": 3994,
    "price_range": "1.5만 원대",
    "convenience": "#단체석있음 #내부화장실 #주차가능",
    "region": "홍대/연남"
  },
  {
    "name": "아우어베이커리 홍대점",
    "category": "카페/베이커리",
    "address": "서울 마포구 양화로 141",
    "latitude": 37.55523959,
    "longitude": 126.9218826,
    "description": "더티초코와 빨미까레가 유명한 프리미엄 베이커리 카페",
    "tags": "#디저트 #친구 #사진찍기좋은 #커피맛집 #가성비",
    "image_url": "/images/아우어베이커리_홍대점.jpg",
    "review_count": 2704,
    "price_range": "1만 원대",
    "convenience": "#유모차반입가능 #반려동물동반 #내부화장실 #엘리베이터있음",
    "region": "홍대/연남"
  },
  {
    "name": "미즈라",
    "category": "이자카야",
    "address": "서울 마포구 와우산로29바길 11-4",
    "latitude": 37.55467441,
    "longitude": 126.9287844,
    "description": "조용하고 아늑한 분위기에서 즐기는 사시미와 하이볼",
    "tags": "#데이트 #술한잔 #조용한 #정갈한 #퀄리티높은",
    "image_url": "/images/미즈라.jpg",
    "review_count": 1524,
    "price_range": "3만 원대",
    "convenience": "#내부화장실 #넓은좌석간격",
    "region": "홍대/연남"
  },
  {
    "name": "감나무집기사식당",
    "category": "한식",
    "address": "서울 마포구 연남로 25",
    "latitude": 37.56398885,
    "longitude": 126.9208941,
    "description": "무한도전에도 나온 돼지불백과 생선구이 정식 맛집",
    "tags": "#회식 #해장 #활기찬 #로컬맛집 #가성비",
    "image_url": "/images/감나무집기사식당.jpg",
    "review_count": 1101,
    "price_range": "1만 원대",
    "convenience": "#유아의자 #단체석있음 #주차가능 #내부화장실",
    "region": "홍대/연남"
  },
  {
    "name": "랜디스도넛 연남",
    "category": "카페/디저트",
    "address": "서울 마포구 동교로 247",
    "latitude": 37.56249633,
    "longitude": 126.9242209,
    "description": "아이언맨 도넛으로 유명한 미국 본토의 맛, 다양한 토핑 도넛",
    "tags": "#디저트 #데이트 #조용한 #커피맛집 #가성비",
    "image_url": "/images/랜디스도넛_연남.jpg",
    "review_count": 4353,
    "price_range": "1만 원대",
    "convenience": "#유모차반입가능 #반려동물동반 #내부화장실",
    "region": "홍대/연남"
  },
  {
    "name": "신미경홍대닭갈비",
    "category": "한식",
    "address": "서울 마포구 홍익로3길 32",
    "latitude": 37.55435517,
    "longitude": 126.9221205,
    "description": "치즈 퐁듀에 찍어 먹는 매콤달콤한 홍대 터줏대감 닭갈비",
    "tags": "#해장 #회식 #활기찬 #재료신선 #저렴한",
    "image_url": "/images/신미경홍대닭갈비.jpg",
    "review_count": 2373,
    "price_range": "1만 원대",
    "convenience": "#유아의자 #단체석있음 #내부화장실",
    "region": "홍대/연남"
  },
  {
    "name": "어니언 성수",
    "category": "카페/베이커리",
    "address": "서울 성동구 아차산로9길 8",
    "latitude": 37.54457721,
    "longitude": 127.0560918,
    "description": "폐공장을 개조한 빈티지한 공간에서 즐기는 팡도르와 커피",
    "tags": "#친구 #디저트 #감성적인 #디저트맛집 #가성비",
    "image_url": "/images/어니언_성수.jpg",
    "review_count": 3724,
    "price_range": "1만 원대",
    "convenience": "#유모차반입가능 #반려동물동반 #내부화장실 #주차가능 #넓은좌석간격",
    "region": "성수"
  },
  {
    "name": "대림창고",
    "category": "카페/갤러리",
    "address": "서울 성동구 성수이로 78",
    "latitude": 37.54223073,
    "longitude": 127.0553454,
    "description": "높은 층고와 웅장한 분위기가 압도적인 성수동 대표 갤러리 카페",
    "tags": "#친구 #데이트 #감성적인 #디저트맛집 #가성비",
    "image_url": "/images/대림창고.jpg",
    "review_count": 2024,
    "price_range": "1만 원대",
    "convenience": "#유모차반입가능 #넓은좌석간격 #내부화장실 #주차가능",
    "region": "성수"
  },
  {
    "name": "소문난성수감자탕",
    "category": "한식",
    "address": "서울 성동구 연무장길 45",
    "latitude": 37.54282727,
    "longitude": 127.054447,
    "description": "성시경 먹을텐데 추천, 살코기가 푸짐한 줄 서서 먹는 감자탕",
    "tags": "#해장 #친구 #시끌벅적한 #로컬맛집 #가성비",
    "image_url": "/images/소문난성수감자탕.jpg",
    "review_count": 3398,
    "price_range": "1.5만 원대",
    "convenience": "#유아의자 #단체석있음 #주차가능 #내부화장실",
    "region": "성수"
  },
  {
    "name": "팩피",
    "category": "양식(파스타)",
    "address": "서울 성동구 왕십리로 136",
    "latitude": 37.54666069,
    "longitude": 127.0435307,
    "description": "미쉐린 빕구르망 선정, 고수 파스타 등 독창적인 메뉴가 있는 곳",
    "tags": "#기념일 #소개팅 #고급스러운 #맛있는 #가격대있는",
    "image_url": "/images/팩피.jpg",
    "review_count": 2377,
    "price_range": "3만 원대",
    "convenience": "#주차가능 #넓은좌석간격 #내부화장실 #휠체어가능",
    "region": "성수"
  },
  {
    "name": "할머니의레시피",
    "category": "한식",
    "address": "서울 성동구 서울숲2길 44-12",
    "latitude": 37.54618061,
    "longitude": 127.0433938,
    "description": "정갈하고 깔끔한 가정식 한 상 차림, 속이 편안한 한 끼",
    "tags": "#해장 #회식 #시끌벅적한 #재료신선 #저렴한",
    "image_url": "/images/할머니의레시피.jpg",
    "review_count": 4546,
    "price_range": "1만 원대",
    "convenience": "#유아의자 #단체석있음 #주차가능 #내부화장실",
    "region": "성수"
  },
  {
    "name": "제스티살룬 성수",
    "category": "양식(버거)",
    "address": "서울 성동구 서울숲2길 19",
    "latitude": 37.54716528,
    "longitude": 127.0416995,
    "description": "톡 쏘는 와사비 쉬림프 버거가 일품인 수제버거 맛집",
    "tags": "#기념일 #데이트 #조용한 #플레이팅예쁜 #가격대있는",
    "image_url": "/images/제스티살룬_성수.jpg",
    "review_count": 1514,
    "price_range": "2만 원대",
    "convenience": "#내부화장실 #주차가능 #넓은좌석간격",
    "region": "성수"
  },
  {
    "name": "우래옥",
    "category": "한식(평양냉면)",
    "address": "서울 중구 창경궁로 62-29",
    "latitude": 37.5682753170688,
    "longitude": 126.9987575209406,
    "description": "평양냉면의 교과서, 진한 육향과 메밀면의 조화가 완벽한 곳",
    "tags": "#친구 #해장 #편안한 #로컬맛집 #가성비",
    "image_url": "/images/우래옥.jpg",
    "review_count": 652,
    "price_range": "1.5만 원대",
    "convenience": "#내부화장실 #주차가능",
    "region": "종로/을지로"
  },
  {
    "name": "익선동 온천집",
    "category": "일식(샤브샤브)",
    "address": "서울 종로구 돈화문로11나길 31-8",
    "latitude": 37.5742785737042,
    "longitude": 126.9904882077336,
    "description": "일본 료칸에 온 듯한 분위기, 온천수 같은 육수의 샤브샤브",
    "tags": "#술한잔 #혼밥 #조용한 #장인정신 #가성비",
    "image_url": "/images/익선동_온천집.jpg",
    "review_count": 1627,
    "price_range": "2만 원대",
    "convenience": "#내부화장실 #예약가능",
    "region": "종로/을지로"
  },
  {
    "name": "바토스 이태원점",
    "category": "멕시칸",
    "address": "서울 용산구 이태원로15길 1",
    "latitude": 37.5348725739453,
    "longitude": 126.9942669592675,
    "description": "김치 프라이즈와 타코 등 퓨전 멕시칸 요리를 즐기는 핫플",
    "tags": "#모임 #이색데이트 #힙한 #특별한메뉴 #가성비",
    "image_url": "/images/바토스_이태원점.jpg",
    "review_count": 1894,
    "price_range": "2만 원대",
    "convenience": "#내부화장실 #주차가능",
    "region": "이태원/한남"
  },
  {
    "name": "몽탄",
    "category": "한식(고기)",
    "address": "서울 용산구 백범로99길 50",
    "latitude": 37.5367760153489,
    "longitude": 126.9701581122261,
    "description": "짚불 향 가득한 우대갈비, 서울에서 가장 웨이팅 긴 고기집",
    "tags": "#가족모임 #회식 #편안한 #재료신선 #고급스러운",
    "image_url": "/images/몽탄.jpg",
    "review_count": 3962,
    "price_range": "5만 원대",
    "convenience": "#발렛파킹 #주차가능 #단체석있음",
    "region": "이태원/한남"
  },
  {
    "name": "진저베어",
    "category": "카페/베이커리",
    "address": "서울 송파구 백제고분로41길 43-7",
    "latitude": 37.5097168884343,
    "longitude": 127.1032451141512,
    "description": "다양한 종류의 미트파이가 있는 유럽 감성 베이커리 카페",
    "tags": "#혼카페 #데이트 #조용한 #디저트맛집 #가성비",
    "image_url": "/images/진저베어.jpg",
    "review_count": 4601,
    "price_range": "1만 원대",
    "convenience": "#유모차반입가능 #반려동물동반 #내부화장실",
    "region": "잠실/송리단길"
  },
  {
    "name": "오제제 잠실",
    "category": "일식(돈카츠)",
    "address": "서울 송파구 올림픽로 300 롯데월드몰",
    "latitude": 37.5132555038126,
    "longitude": 127.100157269049,
    "description": "저온 숙성 돈카츠와 쫄깃한 자가제면 우동이 일품인 곳",
    "tags": "#데이트 #혼밥 #조용한 #장인정신 #퀄리티높은",
    "image_url": "/images/오제제_잠실.jpg",
    "review_count": 3136,
    "price_range": "2만 원대",
    "convenience": "#내부화장실 #엘리베이터있음 #휠체어가능",
    "region": "잠실/송리단길"
  },
  {
    "name": "바이킹스워프 잠실점",
    "category": "뷔페(랍스터)",
    "address": "서울 송파구 올림픽로 300",
    "latitude": 37.5133424380856,
    "longitude": 127.1002755976804,
    "description": "랍스터를 무제한으로 즐길 수 있는 국내 최초 랍스터 뷔페",
    "tags": "#친구 #모임 #이국적인 #특별한메뉴 #가성비",
    "image_url": "/images/바이킹스워프_잠실점.jpg",
    "review_count": 1726,
    "price_range": "5만 원대",
    "convenience": "#내부화장실 #엘리베이터있음 #휠체어가능 #단체석있음",
    "region": "잠실/송리단길"
  }
]
